name,lat,lon
Go Dive Pacific,-41.0307795,174.1814719
The Gantry,-35.5053868,150.3953764
HMAS Hobart (D 39),-35.4810546,138.1572073
Landing Bay Pinnacle,-35.4647573,174.7348497
Ann's Rock / Astrid's Wall,-35.4473675,174.7337301
Clifton Gardens,-33.8398181,151.2537003
Chowder Bay,-33.8394641,151.2547765
Waterfall,-33.8225912,151.2942526
Blue Fish Wall,-33.8021808,151.3031233
The Wall,-33.7377946,151.3284848
SS Duckenfield,-33.7180876,151.3240346
Swansea Bridge,-33.0862306,151.6395717
Valpo Sup,-33.022266,-71.6439164
Club de Buceo,-33.0220006,-71.6449852
The Pipeline,-32.7179891,152.1413885
Fly Point,-32.7141474,152.1512394
Halifax,-32.7102627,152.1589987
Cabbage Tree Island,-32.6868842,152.2247997
SS Oakland,-32.6784131,152.2343152
Looking Glass,-32.6295271,152.3158042
North Rock,-32.6014473,152.3228858
Wreck Trail,-32.2724841,115.7314191
Ammunition Jetty,-32.1242633,115.758999
Gareenup,-32.0519895,115.7256889
Elbow Cave,-29.9304561,153.3907159
Bubble Cave,-29.9276437,153.3894686
The Canyons,-29.9250421,153.3864504
The Mackerel Run,-29.9230593,153.3859952
Anemone Bay,-29.9229925,153.3880012
Amoray,-27.5408898,32.6789074
Ilha do Arvoredo,-27.2968146,-48.3618812
Centro de Buceo Mike Rapu,-27.1468009,-109.430646
Buceo Orca,-27.1467412,-109.430996
Barolin Point,-24.8833429,152.4896423
Rochedos dos Calhaus,-24.3299188,-46.162512
Laje de Santos,-24.3192504,-46.1807218
Le Grand Bleu,-23.1254202,43.608619
Fifi Diving,-23.1247053,43.6090448
Mora Mora,-23.1227101,43.6102441
Aiguille du Prony,-22.3288336,166.8350015
Victory B8,-20.6853434,-40.3909733
Ocean Spirit,-19.993447,57.5920734
Aqua BASE,-19.9930936,57.5924134
BASE Diving,-19.9930129,57.5924
Rodrigues Diving,-19.672944,63.4360825
Cruise Whitsundays Pontoon,-19.5714303,149.2695225
Mairie II,-18.0657234,-140.974016
Il Balenottero,-17.0004747,49.8513054
Down Under Diving,-16.523637,145.9851619
TopDive,-16.4989114,-151.7567375
Clipper,-16.4275949,145.9881647
Plate Top,-16.4270161,145.9904141
Troppo's,-16.4192277,145.9965038
Nursery Bommie,-16.0309501,145.8563177
Just Magic,-16.0213633,145.8070862
Wreck Bay,-15.982229,145.8370152
Million Dollar Point,-15.5255116,167.2452199
SS President Coolidge,-15.5230823,167.2352421
Flare Point,-15.5125869,145.7768157
Steve's Bommie,-15.5012397,145.7882636
6 passengers,-14.9604409,-147.6462727
Goggle Gardens,-14.95076,145.68395
Pixie Pinnacle,-14.929769,145.6755024
Pixie Gardens,-14.9280802,145.6772796
Challenger Bay,-14.9154407,145.6903158
Lighthouse Bommie,-14.875091,145.689982
Cod Hole,-14.663675,145.6634652
Round the Bend,-13.891201,146.5528992
Admiralty Anchorage,-13.8866784,146.5569376
Castle,-13.851845,146.563382
Halfway Wall,-13.8487161,146.563876
North Horn,-13.8013992,146.5457903
Balala Diving,-13.598744,47.8184136
Tropical Diving,-13.4001602,48.207616
Rosado,-13.3931342,48.0866988
Manta divesite,-13.3683279,48.0627584
Shark Point,-13.3233766,48.0195595
Chameau,-13.3220658,48.0994665
Manta Point,-8.7947861,115.5259217
PADI Hammerhead Bali Dive,-8.7681895,115.2217763
Gaja Rock,-8.7451021,119.4825409
Tanjung Loh Sera,-8.7432085,119.4720907
Loh Sera,-8.7355061,119.4569802
Manta Bay,-8.7353445,115.4506577
Crystal Bay,-8.7155168,115.4574864
Water Walk,-8.7065673,115.2631469
Bali Aqua Diving,-8.7057514,115.2531295
Pillarsteen,-8.6946259,119.5675945
3 Sisters,-8.6881122,119.5736556
Payong,-8.6804164,119.6057521
Ped,-8.6756914,115.5160285
Indihiang,-8.6520619,119.4960867
Loh Namu,-8.641888,119.4868791
Wainilu,-8.6255978,119.7074961
Gindang,-8.6108571,119.7197489
Pink Beach,-8.60391,119.5184013
Bonsai,-8.6034515,119.6544647
Pantai Merah,-8.6009657,119.5261842
Batu Tiga,-8.5996016,119.5728673
Pengah Kecil,-8.5769535,119.6808266
Siaba Besar,-8.558211,119.6450121
Mawan,-8.558126,119.6361023
Siaba Besar,-8.5455259,119.6482815
Manta Point,-8.5415535,119.5997228
Makassar Reef (Manta Point),-8.5335442,119.5905966
Gili Tepekong South,-8.5316464,115.586138
Gili Tepekong North,-8.5311955,115.5858269
Gili Mimpang,-8.526092,115.576321
Tatawa Kecil,-8.5252252,119.6332396
Blue Lagoon,-8.5179074,115.5097974
Sabayor Kecil,-8.5109788,119.695278
Tatawa Besar,-8.5083587,119.6397238
Mini Wall,-8.5081987,119.7040058
Sebayur,-8.5046306,119.7078895
Blue Coral Diving,-8.5000726,116.0499
Twin Island Dive,-8.4878718,119.8768821
The Cauldron,-8.4609097,119.5633723
Crystal Bay,-8.4472423,119.5682314
Cystal Rock,-8.4416648,119.5677822
Lighthouse Reef,-8.4409708,119.5837837
Seraya kecil,-8.4181211,119.8625135
Teluk NBoro,-8.4042153,116.0591248
Sabolon besar,-8.3926698,119.8068523
Sabolon kecil,-8.3896766,119.7984087
Manta Point,-8.363335,116.0265987
Meno Corner,-8.3588705,116.0625884
Bounty,-8.3568341,116.0512706
Buddha Dive,-8.3565541,116.0419207
Blue Marlin Dive Gili Meno,-8.3536363,116.0614862
Air Wall,-8.3528396,116.0738278
Meno Slope,-8.3517823,116.0500957
Mirkos Reef,-8.3510773,116.0657213
Trawangan Dive Biorock,-8.3490364,116.0442834
Gili Sanctum,-8.3487203,116.043001
Samba Vilas Biorock,-8.3481527,116.0439347
Bale Sampan Biorock,-8.3479656,116.0438526
Lombok Dive,-8.3475991,116.0283794
Frog Fish Point,-8.3474561,116.0886552
Mango Dive,-8.3471433,116.0423383
Trawangan Wall,-8.3465756,116.0436158
Turtle snorkeling spot,-8.3462772,116.0429691
Vila Almarick Biorock,-8.3461172,116.0433854
Meno Wall,-8.3452031,116.0498999
Turtle point,-8.3427036,116.0437832
Shark Point,-8.3425401,116.0236615
Shallow Turbo,-8.3395246,116.0440257
Mama Dive,-8.337772,115.6587537
Jack Point,-8.337684,116.0255805
Underwater Shrine,-8.3376207,115.6610709
Amed wall,-8.337564,115.6617295
Deep Turbo,-8.3367441,116.0462579
Halik,-8.336235,116.038308
Simons Reef,-8.3347077,116.065643
Segaluh,-8.3344744,116.0982787
Pyramids,-8.3341953,115.6536502
Bali Dive Trek,-8.3312359,115.6309014
Malang,-8.3296167,116.0701857
Bulakan,-8.308309,115.6214953
Batu Belah,-8.3078554,115.6208435
Seraya Beach,-8.2956657,115.611935
Blue Hill,-8.2875992,115.6050638
Emerald,-8.2837348,115.6028731
Big Fins TecDiving,-8.2784946,115.5933629
Coral garden,-8.2769163,115.5946864
Marta Dive,-8.2753636,115.5904646
USAT Liberty Wreck,-8.2739054,115.5926122
Paradise Diving,-8.2738721,115.5904903
Blue Corner,-8.1004242,114.5205089
Mangrove Point,-8.0978736,114.5089187
Underwater Cave,-8.0974198,114.5263131
Menjangan - Pos 2,-8.0964808,114.5279094
Post I Jetty,-8.0963806,114.5031276
Bat Cave,-8.093384,114.5289757
Coral Garden,-8.0912588,114.5220724
Little Wall,-5.8387967,39.3918874
Little Wall,-5.8387027,39.3919965
Big Wall,-5.8016272,39.418089
Noodles,-5.7585227,106.5961052
Captain Muddy,-5.7355216,39.2902305
Sea Garden,-5.7350752,106.606427
THGI Nungwi,-5.7301527,39.2926562
Maria's Heart,-5.6897869,106.5382091
Spongebob,-5.6877104,106.5367446
Jevry's Drop,-5.6667085,106.571608
Leon's Cloudy Canyon,-5.6654889,106.570588
The Cleavage,-5.6203007,106.5557914
Jetski Lagoon,-5.6196494,106.552117
Kaliage Kecil Selatan,-5.6181439,106.5767719
Kaliage Kecil Utara,-5.6164142,106.5756668
Kayuangin Lagoon,-5.5856787,106.5503736
Leon's Bikini Bottom,-5.5850327,106.5485443
Valley of the tubes,-5.5834614,106.5929807
Uranus Pinnacle,-5.4815172,106.6014413
Tuna Can,-5.4666505,106.4388584
Jevry's Shaft,-5.4270349,106.4644693
JC Slope,-5.4205019,106.4890034
Agus dream,-5.4165447,106.4719031
Fananas,-5.4155864,106.469434
Roche Grand Maman,-4.2900691,55.6859107
Terumbu Karang,-3.7860882,115.5659345
Parcela Marina,-1.5927583,-80.8625987
Long beach ⛱️,-1.4899517,123.5461332
Swallope,-1.275924,129.6614347
Galaisa Adventure Travel Agency,-0.9554825,-90.966512
Ocho,-0.9017234,-89.61164
Galapagos fan dive,-0.9010163,-89.6106449
Pulau Pieh,-0.8762778,100.0976111
Cookie Monster,-0.8259531,121.5938859
Tanjung Tampo,-0.8111953,121.663937
Irvin's Mantas,-0.7930622,130.5047585
Survival,-0.7610055,121.7715927
Circus,-0.7532412,121.7658429
Nurek,-0.7523651,121.7690837
House Reef,-0.7523122,121.7620927
Rap God,-0.7459502,121.7545824
Galapagos People,-0.7429614,-90.3119827
Tanjung Gurita,-0.7405208,121.7579097
Bima Sakti 3,-0.7379916,121.7659961
Bima Sakti 1,-0.7377503,121.7734271
SpaceX,-0.7363043,121.766766
Swarm,-0.708643,130.3055331
Wai FPW,-0.7021871,130.7126716
West Mensuar,-0.6087297,130.5466783
My Reef,-0.6065187,130.2893836
Harto's Reef,-0.5934078,130.2895933
Keruo Night Dive,-0.5930296,130.3044533
Fam Wall,-0.5915939,130.2967816
Melissa's Garden,-0.5898694,130.3152067
Sawandarek Jetty,-0.5897798,130.6033001
Seamount,-0.5894517,130.3102785
Keruo Channel,-0.5888295,130.2960285
Erens New,-0.5823501,130.643081
Manta Point,-0.5809433,130.5409632
Manta Sandy,-0.5800375,130.5418638
Plazas,-0.5796433,-90.1597537
Yembuba Diving,-0.5718143,130.6618405
Arborek shark point,-0.5672128,130.5071587
The Lagoon,-0.5660946,130.2856301
Batu Rufas,-0.5659022,130.2844014
Ransiwor,-0.565852,130.6591085
Gordon Rocks,-0.565433,-90.1419987
Aerborek Jetty,-0.5634152,130.5186131
Manta Ridge,-0.5617019,130.537349
West Penemu,-0.5615678,130.2565689
Batu Bila,-0.5540037,121.6408956
Manta Sandy,-0.5532675,130.5299532
Koh,-0.5529745,130.6979979
Cross Over,-0.5495349,130.6844603
Batu Laut,-0.548034,130.4981147
Chicken Reef,-0.5465947,130.7025224
Lalosi,-0.5457583,130.496442
Anita's Garden,-0.5435233,130.2511258
Barracuda East,-0.5427047,130.2518139
Barracuda West,-0.5418952,130.250866
Otdima Reef,-0.5403458,130.6308988
Stevan reef,-0.5333334,121.6311111
Sardine Reef,-0.5333183,130.7139487
Ot Di Ma,-0.5297741,130.6385512
Mushroom Rock,-0.5251125,121.9406534
Mangrove,-0.5251113,130.461759
Cave Lagoon,-0.524805,130.593602
Blue Magic,-0.5190107,130.7254735
Mangrove and Slope,-0.5154423,130.4618957
Mayhem,-0.5139054,130.4454953
Deep Rock,-0.5138244,130.4405035
Mike's Point,-0.5136831,130.674383
Mangrove Ridge,-0.5129865,130.459773
GA's Flash,-0.5117444,130.4551455
Mayhem,-0.5110819,130.4465905
Citrus Ridge,-0.510554,130.4555644
Way Pretty Shallows,-0.5101972,130.448606
Gam Ridge,-0.5094497,130.4547141
Blue Magic,-0.5074179,130.7368162
Lao lao,-0.5038958,130.718396
Myoskon,-0.497365,130.7268192
Mioskun,-0.4970983,130.719783
Katrin reef,-0.4952778,121.6188889
Yeben Shallows,-0.4917346,130.3342607
No Fear,-0.4775389,121.9348818
Friwen Bonda,-0.4750988,130.6981206
Friwen Laut,-0.4744472,130.7000962
Friwen Garden,-0.4713256,130.6985472
Francisco,-0.4673361,130.6941364
Donut Reef,-0.4668104,121.9346205
West Reef's End,-0.4649679,130.8493593
Andrea's Point,-0.4641228,130.690372
Saddleback Reef,-0.4537005,121.9523344
Bomba atoll,-0.4509069,121.6356468
Batu Lima,-0.4501697,130.6986886
Nimpi Dinding,-0.4501405,121.6335686
Fuzzy Rock,-0.4470521,130.4581085
Kabui,-0.4343816,130.6872477
Selat Kabui,-0.4321515,130.5515835
Soft corals in the passage,-0.4286672,130.5610216
B-24 Bomber Wreck,-0.426194,121.9743213
The Passage,-0.4208683,130.5654502
Lighthouse,-0.4201378,121.638428
The Cathedral,-0.4200947,130.5683194
Goa Goa,-0.4154801,121.6845711
Kakatua reef,-0.415233,130.6744537
Urai,-0.4125069,130.6995888
Mosquera,-0.4085075,-90.2772687
Imbekwan wall,-0.4002043,131.206949
Imbekwan Bommies,-0.3997071,131.2043113
Daphne,-0.3955196,-90.3529774
Pulau Memyai,-0.3676028,131.1827303
Mildred's Rock,-0.3638968,121.8411752
Channel,-0.3531598,121.8765404
Chinatown,-0.35285,121.8372138
Bajo,-0.3512924,121.8485034
Taipi Island,-0.3361726,121.8513234
Gap,-0.3275464,121.8358574
Taipi Wall,-0.3177734,121.8387571
Tiger sharks feeding point,-0.3065725,73.4412596
California Reef,-0.3063465,121.9564193
Telma,-0.303633,130.9035058
Seafan,-0.3001317,73.4365218
Maa Neyru,-0.3000826,73.4205001
Neregando reef,-0.2933363,73.4112572
Rasgefanno,-0.2912111,73.4281061
Thundi,-0.2809093,73.4217
Chinese Town,-0.2188239,121.5917393
Pinnacle,-0.2160038,121.6360218
Reef 5,-0.2137917,122.07655
Menara 2,-0.2078931,121.646054
Apollo,-0.2068821,121.5713092
White Arrow,-0.2055018,130.2554037
Candi City,-0.2013095,121.6517667
Turtle Point,-0.1924605,121.6577829
Jack Point,-0.1835211,121.6604099
NAD Lembeh,1.4447743,125.2409649
Murex Dive,1.45695,124.7625408
Turtle City,1.5944429,124.7738773
Likuan 1,1.5960885,124.7679605
Timur 1,1.5968544,124.7834687
Likuan 2,1.6008372,124.7657464
Pangalisan,1.6031842,124.7828835
Likuan 3,1.6050969,124.766713
Bualo,1.6091646,124.7007471
Cela Cela,1.6102864,124.7683402
Mandolin,1.6111528,124.7329308
Panorama,1.6140994,124.7673411
Timur 2,1.6145663,124.7832989
Fukui Point,1.6164622,124.7506949
Alung banua,1.6174836,124.7559944
Tengah,1.6190291,124.7326589
Muka Gereja,1.6232667,124.7199353
Siladen 2,1.624023,124.8079861
Siladen 1,1.625049,124.7971832
Tanjung Parigi,1.6283536,124.7664363
Sachiko's,1.6312436,124.7740207
Raymond's,1.6314914,124.7365353
Mike's,1.6351474,124.7431438
S. Utara,1.6411589,124.7966476
Pangulingan,1.652869,124.7109802
Tanjung Kopi,1.6532373,124.6917917
Bango,1.692911,124.779776
Gorango,1.6942341,124.7534642
Buhias,1.708793,124.78332
Tangkasi,1.7330462,124.7734569
Barracuda Point,1.7518479,124.7320346
Jalan Masuk,1.7603355,124.7995788
Helga Point,1.7896039,124.8143125
Batu Kapal,1.7927374,124.7720657
Shark Diving Indonesia,2.0485481,128.2931263
Bamboo SeaSport,2.4346693,103.9772257
Keyodhoo Shipwreck,3.4513703,73.5606152
Maamigili Beyru,3.4623198,72.8193017
Holiday Beyru,3.4667329,72.8299005
Dhidhoo corner (out reef),3.4790689,72.8768978
Fish Bank,3.5148712,72.9187866
Dhigurah Arches,3.5400179,72.9150945
Broken rock,3.5561503,72.9369047
Kuda Rah thila,3.5588012,72.9230452
Five rocks,3.5688653,72.9415191
Hudhu Thila,3.5697576,72.940986
Hukurudhoo reef,3.5729372,72.7213988
Rangali manta point,3.5879734,72.7193872
Kudhi Maa Wreck,3.5907967,72.8827411
Rangali Madivaru,3.5954543,72.7189263
Miyaru Kandu,3.5996409,73.5042226
Thila,3.6088614,72.8146388
Exit 4,3.6329424,72.9580956
Exit 5 + 6,3.6333522,72.9558738
Exit 1 and 2,3.6333949,72.9613638
Exit 10,3.6338652,72.9609627
Exit 7,3.6343987,72.956013
Exit 9,3.6344382,72.9597692
Exit 8,3.6347069,72.9583209
Vilamendhoo Housereef,3.6352812,72.9571983
Moofushi,3.8814315,72.7210353
Guraidhoo Corner,3.8937988,73.4691913
Guraidhoo Channel,3.8960875,73.4635205
Fish Head,3.9359727,72.9131414
Miyaru Faru,3.989206,73.5112278
La Ferreteria,3.9921342,-81.6165342
La Gringa,3.9940879,-81.6163365
David,3.996058,-81.6150641
Salomon,3.9971453,-81.613837
Saul,3.9973248,-81.6147183
Bajo del Junior,3.997714,-81.6123358
El Sahara,3.9989203,-81.6151042
Los Gemelos,3.9991154,-81.6071177
Fesdhoo,3.9994333,72.7860333
Fesdhoo thila,3.9995814,72.7857358
La Torta,3.9996824,-81.6044138
La Puerta del Cielo,4.0004595,-81.6131157
Vagamares,4.0006532,-81.6048071
El Arco del Tropic,4.0018236,-81.6039833
La Nevera,4.0022481,-81.6112468
Maalhos Thila,4.0023266,72.7192917
La Pared del Tangon,4.0034423,-81.6040832
El Mirador,4.003538,-81.61204
Aquamarina,4.003939,-81.6107252
El Arrecife,4.0047123,-81.6041082
House Reef,4.0054454,72.9507361
El Freezer,4.0060961,-81.6086715
La Cara del Fantasma,4.0069287,-81.6036963
Bajo del Monstruo,4.0086226,-81.6030341
Bajo del Anda,4.0113966,-81.6059224
Bajo del Cholo,4.0120253,-81.607661
D'Artagnan,4.0126323,-81.60652
El Acuario,4.0131743,-81.6089106
La Catedral,4.0139547,-81.6058681
Los Tres Mosqueteros,4.0141932,-81.6074002
Ellaidhoo house reef,4.0152499,72.9498129
Bidu Thila,4.042284,72.9523073
Bathalaamaagaa Kanthila,4.0705807,72.9497539
Maaya Lagoon,4.0745667,72.8844468
Bungalow 78 exit,4.0828312,73.5139469
Coral garden,4.0830752,73.5104942
Main jetty exit,4.0845674,73.5132801
Exit,4.0864758,73.5101777
Maaya Thila,4.0913626,72.8619718
Embudu Finolhu Outside,4.1085996,73.5325069
Etheremadivaru house reef,4.1161509,72.9368108
Hafsa Thila,4.1291928,72.8382075
Victory Wreck,4.1798982,73.52538
Gangehi Kandu,4.2179595,72.7364113
Kuramathi house reef,4.2594906,72.9682155
Rasdhoo Madivaru Corner,4.2642509,72.999492
Kuramathi North,4.2776362,72.9388788
Gangehi North Kandu - manta cleaning station,4.2814718,72.7812266
Veligandu east,4.2889609,73.0128287
Rannamaari Wreck,4.3055288,73.4166647
Entrence base,4.5891503,73.4133043
Entrence 110,4.5894211,73.4164095
house reef,4.5902914,73.4129734
Entrence 128,4.5907743,73.4155154
Entrence 155,4.5913072,73.4134729
Akirifushi,4.6382329,73.3971699
Tokong Timur,4.781988,103.6884539
Tanjung Gemuk,4.8054004,103.6730597
Coral Garden,4.8057222,103.68752
Five Sisters,4.8061498,103.6743471
Turtle Point,4.8067485,103.6757397
Rajawali Reef,4.8164132,103.678703
Amazing Grace,4.8421138,103.6643049
Moonraker,4.8491695,103.6628673
Dharavandhoo thila,5.1612242,73.121948
Dhonfanu thila,5.1720764,73.115684
Dhigu thila,5.1743777,73.1062071
Bodu Gaa,5.1833655,73.1245891
Kuda Gaa,5.1837471,73.121548
Housereef East,5.2549784,73.1652935
Housereef West,5.255602,73.1620467
Hiroshi East End,5.25881,162.9892488
Hiroshi West End,5.2679461,162.9747035
Old Clam Farm,5.2691599,162.9256744
Walung Drop Off,5.2894935,162.902064
Redang - Terumbu Kili,5.7318676,102.9974686
Redang - Che Isa,5.7598668,103.0361363
Redang - South Tip,5.7713972,103.0600953
Redang - Black Coral,5.7739661,103.058764
Redang - Paku Besar,5.7801875,103.0436756
Redang - Tanjung Lebah,5.7852544,102.9885185
Redang - Tanjung Tokong,5.8185762,103.0100904
Sugar Wreck,5.8796704,102.6404967
Shark Point,5.884488,102.747377
K.K Bay,5.8851222,102.7413743
Arus Balee,5.8909494,95.2540915
Vietnamese Wreck,5.894148,102.712432
T3,5.9002988,102.7739619
Turtle Point,5.904471,102.7421819
Blue Lagoon,5.9104176,102.7487457
Batu Layar Rock,5.912281,102.744517
Police Wreck,5.912943,102.7491243
Tiga Ruang,5.913863,102.7535919
D'Lagoon,5.9324021,102.7232596
San Choi Wreck,5.933905,102.715836
Temple of the Sea,5.9610039,102.6550374
Submarine Diving School,6.0078708,80.2438518
sea horse,6.0096563,80.2499319
Shark Point,6.0692468,100.0439171
8 mile rock,6.3308848,99.3187782
Pattaya Corner,6.4805159,99.3065087
Ko Usen,6.4846786,99.3142581
Stone Henge,6.4858131,99.3348206
Koh Talak Steps,6.48892,99.3317659
Koh Talak North,6.4892251,99.3338362
Koh Kra,6.4928447,99.3139147
Lankayan - Jetty Dive,6.5053339,117.9163959
Lankayan - Lankayan Wreck,6.5054606,117.9091771
Lankayan - Malu Malu,6.5118462,117.9396429
Lankayan - Bimbo Rock,6.520382,117.9295197
Lankayan - Sunnug Lair,6.5368273,117.8996729
Koh Yang South,6.5404054,99.2608451
Koh Yang North,6.5443288,99.2564266
Pahleng Corner,6.8594977,158.1058796
Coral Gardens,6.9182835,125.6818521
Dahwlak Pokie,6.9343653,158.0807093
Angel's Cove,6.9606278,125.677643
Peliliu Corner,6.96978,134.2252069
West Coral Pass,7.080505,171.3526728
Raycrew,7.08668,171.3737005
The Big Drop Off,7.1014261,134.2496522
New Drop-Off,7.1060113,134.2394949
Ngerechong Drop-off,7.1119455,134.3682955
Ngerechong North Coral Garden,7.1159112,134.3670831
Anemone Nr. 1,7.127402,171.3105292
Blue Corner,7.1343222,134.2213095
Blue Holes,7.1372018,134.2225545
Temple of Doom,7.1375335,134.2229725
Pinnacle Point,7.1583827,125.7879646
Paradies Corner,7.2433042,134.3723288
Sand Bar,7.2707699,134.2448368
Ulong Channel,7.2834381,134.244683
Lighthouse Channel,7.2898655,134.4599024
Sankisan Maru,7.295224,151.8686103
Rio de janeiro Maru,7.3041719,151.894137
Siaes Tunnel,7.3114442,134.2266188
Siaes Corner,7.3138553,134.2201758
Chuyo Maru,7.3402859,134.4392897
Chandelier Cave,7.3407011,134.4506516
Fujikawa Maru,7.3445825,151.8844405
Purple Rock,7.367387,98.8700202
Hin Daeng,7.3675743,98.8757537
Jake SeaPlane,7.3691524,134.4484596
Kiyosumi Maru,7.3735956,151.8432342
Kensho Maru,7.3768704,151.8457254
Haian Maru,7.3827083,151.8556827
Shinkoku Maru,7.400096,151.7789273
South Tip,7.4573031,98.3034682
Banana Bay,7.498387,98.325071
Ao Kon Ka Re,7.6001802,98.3744383
Bay 1 / Ao Ter,7.6072305,98.3778275
Bungalow bay,7.609529,98.365004
Hin Bida,7.636639,98.8208221
Ko Bida Nok,7.6544056,98.7676308
Turtle Rock,7.6869197,98.7638761
Palong wall,7.694003,98.763672
Ko Dok Mai,7.7964244,98.5302811
Shark Point,7.7983423,98.6265159
MS King Cruiser,7.8013441,98.6429069
Anemone Reef,7.8073921,98.6273756
Sub Aqua,7.8377674,98.2950659
Bar Reef,8.3673231,79.7463453
Elephant Head,8.6196229,97.6408268
Tu Khao Lak Travel & Service,8.644123,98.2516586
El Arco,8.7101759,-83.8933319
La Cueva,8.7111362,-83.8898561
El Andia - Jureles,8.7120224,-83.8853407
La esquina del jardin,8.7155639,-83.8698587
MAR Fill Coral Head,8.72856,167.72291
G-Buoy Coral Head,8.7302,167.72676
GBR Coral Head,8.73063,167.72031
K-9 Deep Coral Head,8.73275,167.72603
K-9 Coral Head,8.733,167.72466
GBR North Coral Head,8.73316,167.7182
K-9 West Coral Head,8.73333,167.72313
Junkpile-3,8.73543,167.72946
Junkpile-2,8.73558,167.72891
K-10 Coral Head,8.7365,167.72646
Junkpile-1,8.73666,167.7287
K-7 Coral Head,8.73718,167.71916
N-Buoy Coral Head,8.73856,167.7294
Barracuda Coral Head,8.73893,167.70928
Toilet Bowl,8.74051,167.73253
Emon Coral Head,8.741,167.7341
SAR Coral Head,8.74226,167.70168
Kwaj-1 Coral Head,8.75001,167.67698
Kwaj-2 Coral Head,8.75445,167.67161
ER-2 Coral Head,8.757,167.73216
Bravo Buoy Coral Head,8.75765,167.71308
Boonsung Wreck,8.7707571,98.1863863
Vertical Wall,8.77198,167.65216
Troys Coral Head,8.77225,167.66738
R-Buoy Coral Head,8.7834,167.70813
S-Buoy Coral Head,8.80708,167.70108
Kwaj-3 Coral Head,8.81188,167.60123
North Loi Coral Head,8.81235,167.73005
Twin Peaks Coral Head,8.81766,167.67818
T-Buoy Coral Head,8.82048,167.70886
Victor Buoy Coral Head,8.87195,167.73166
Marita Shoals,8.88155,167.64211
Twin Peaks,9.0562852,97.8150386
Koh Tachai Pinnacle,9.0563523,97.8122901
Rock point East,9.0711573,123.2697703
Rock point West,9.0727411,123.2670413
Marine Sanctuary,9.0741752,123.2717493
Katipanan,9.0751164,123.2670433
Kan Uran,9.0761452,123.2740714
Chapel,9.0773204,123.2670927
Mamsa point,9.0774532,123.2758748
Baluarte,9.0796435,123.2672375
Cogon,9.0811172,123.2744544
Largahan,9.0828639,123.2675027
Coconut Point,9.0851555,123.2698162
Mantigue Island,9.1744129,124.8266494
Cars dive,9.1809498,123.2652037
Cars Dive,9.1829738,123.2659787
White Island Black Forest,9.2553411,124.6545324
White Island Reef,9.2573114,124.658976
Jigdup Reef,9.2637611,124.78376
Casa Verde,9.3219472,-82.2195889
Barco Hundido,9.3308072,-82.2224984
La Buga Dive & Surf,9.3371182,-82.2405793
Bocas Diving Pirates,9.3425207,-82.2411948
Richelieu Rock,9.3634061,98.0220602
Turtle Ridge (Turtle Ledge),9.3892707,97.8818628
Prebens Platon,9.3895591,97.8228844
Tao Bay,9.3904679,97.8807289
Suthep Bay,9.4153867,97.8488058
Jaak (Chak) Bay,9.4549387,97.8964681
Pangas,9.584901,121.1937263
Zero plane,9.5926867,138.1168957
Vertigo,9.5929632,138.1125339
Mill Channel old cleaning station,9.60112,138.1301774
Mill Channel new cleaning station,9.6015185,138.1366048
Mill Channel: Ridge,9.6044595,138.1270354
Mamaan,9.6066772,121.2223023
Napaling Wall Dive,9.620997,123.7733101
Blue Horizon Diving,9.7727148,99.9658281
Reefers,9.7785427,99.9676732
Freediving,9.784735,99.9723069
Fish & Ships,9.7848922,99.9720293
France Plongee,9.7858987,99.9755562
Chaloklum Diving,9.7865358,100.0044261
Western Rocky,9.860141,97.8678457
Western Rocky Pinnacle,9.8605209,97.8697937
Bonifacio Reef,9.863387,122.3724604
Twin Peaks,9.8657547,122.3752391
Convention Reef,9.8683867,122.3821807
Tanguigue Reef,9.8695388,122.370497
Doug's Ridge,9.8706804,122.3802924
Andres Reef,9.8728684,122.3713445
Hillary's Reef,9.8731855,122.3811936
Manta Reef,9.8773394,122.3737371
Wilson's Reef,9.8802461,122.383039
North Wall,9.8811551,122.3743164
Sampaguita,9.9345247,123.3755412
Sail Rock,9.9450036,99.9903771
seafan forest,9.9462299,97.8623511
Southwest Pinnackle,9.9793452,99.7047322
Shark Island,10.0623691,99.8456663
Ao Hin Ngam,10.0676822,99.8411029
Ocean Sound and Dive + Yoga,10.0684138,99.8270501
Ao Luek,10.0710681,99.8410882
Pottery,10.0807768,99.8163373
Ao Tanot,10.0833646,99.8498136
Laem Thian Pinnacle,10.0901948,99.85696
South Rock,10.0906524,97.9943998
HTMS Sattakut,10.1056432,99.8135376
Hin Pee Wee,10.1066348,99.8133678
White Rock,10.109502,99.8135659
Twin Rocks,10.1159286,99.8120026
Boyancy World,10.1170082,99.8118682
Japanese Gardens,10.1188103,99.8145504
Three Sisters,10.121047,97.9538686
Mango Bay,10.1229226,99.8350543
Red Rock,10.1234449,99.8148536
Green Rock,10.1237522,99.8100987
Chumpon Pinnacle,10.1719265,99.7783071
Hilutungan Sanctuary,10.2103654,123.9869917
Zona de Buceo 2,10.2518709,-75.6228165
Zona de Buceo 1,10.2528047,-75.6215841
Old Jetty Wreck,10.619907,103.3023588
Corner Bar,10.6265304,103.2956549
Middle tree,10.6316534,103.2965254
Banayan Point,11.1356437,119.2806245
Biet Point,11.1414055,119.3047041
Bikanayos Rock,11.1439916,119.2781609
Cave,11.1536768,119.279235
Barcazas,11.2519557,-74.2218564
Playa Vaca,11.2601686,-74.2009318
Punta Venado,11.2734449,-74.2064555
Punta Venado,11.2757795,-74.2056701
Kimod Shoel,11.2903811,124.2352736
Bombita,11.3030976,-74.1823977
Torin,11.3093235,-74.191281
Salichin,11.3114708,-74.1940608
Monad Shoal,11.3133913,124.1947241
Punta Aguja,11.3175956,-74.1999683
Dakit-Dakit,11.3235603,124.1090875
Exotic House Reef,11.3291169,124.1260138
Evo House Reef,11.3311789,124.126316
Lighthouse,11.3421901,124.1097625
Los Bamboos,11.3431335,124.108851
Ka-Osting / Bantigue,11.3456001,124.1193512
Lapus-Lapus,11.3461986,124.1024056
North Point,11.3467707,124.1056477
Deep Slope,11.3483754,124.1203631
Lapus-Lapus 2,11.3485435,124.1023051
Secret Wall,11.3501906,124.1158957
Deep Rock,11.3512234,124.1027874
Moucha Islands,11.7191937,43.1718877
The Elephants,11.805333,102.4554154
Blueberry Hill,11.9064514,102.3152629
Dixon's,11.9218031,93.0930528
Hin Luk Bath,11.9462565,102.2841667
Barracuda Lake,11.956511,120.216864
Irako,11.9678333,120.04015
TANGAT (morozan maru),11.9714464,120.061928
Akitsushima,11.9871,119.9735333
Morazan,11.9883406,120.0372034
Duncan's Wreck,12.0065789,92.78051
Taiei Maru,12.0176,119.9695166
Guoddus Garden,12.0218714,92.8006998
Yellow Hut (unmarked site),12.0311599,-68.2562156
Hidden Beach (unmarked site),12.0323197,-68.2581378
Soft Coral Garden (unmarked site),12.0334365,-68.2604963
Lighthouse,12.049892,92.9641702
The Wall,12.0547239,92.962155
English Garden,12.0597582,-68.2822176
Minerva Ledge,12.0618504,93.1507236
MV Mars,12.0640919,92.9633935
Johnny's Gorge,12.06438,93.1565799
Ship Wreck Tugboat,12.0679476,-68.8619504
The Rock,12.0760025,-68.2799587
Ship wreck,12.0762578,-68.8805685
Johnson's Reef,12.0783903,92.9520097
Marie Pampoen,12.0897355,-68.9068508
Alice in Wonderland,12.0998035,-68.2852927
Hilma Hooker,12.1037524,-68.2901176
Jackson's Bar,12.1228934,93.1605411
Nanshin maru,12.1495372,119.8254378
Boy Scout,12.1589381,-68.2810107
Something Special,12.1613822,-68.2838525
Front Porch,12.1666879,-68.2871264
Bari Reef,12.1674719,-68.2872007
La Machaca,12.171676,-68.2893863
Rif Sint Marie,12.1985784,-69.079446
Oil Slick Leap,12.2001711,-68.308717
1000 Steps,12.2106695,-68.3217112
The Valley,12.2185168,-69.0862994
Taylor Made,12.2230317,-68.4036763
South Button,12.2237104,93.0197618
Carel's Vision,12.230709,-68.4127451
Turtle Dive,12.2331751,109.1955054
Angel Dive,12.2332138,109.195692
Playa Frans,12.245742,-68.4141402
Wayaka 2,12.2696116,-68.4139081
Boka Katuna,12.2997359,-68.4025266
Mushroom Forest,12.3018115,-69.1543365
Palacio de la Cherna,12.4875475,-81.7185353
Elsy Bar,12.4895164,-81.7423986
West Point,12.4971458,-81.7417264
Blue Wall,12.4974739,-81.7142501
Las Piedras de Carlitos,12.4999349,-81.7033267
Nirvana,12.5055132,-81.7360126
Cantil de Nirvana,12.5060874,-81.7453395
Villa Erika,12.5119936,-81.7345842
Cantil de la Piscinita,12.5124858,-81.7459277
El Faro,12.5168743,-81.7359496
Wild Life,12.5170794,-81.7433229
las Cuevas,12.5215909,-81.7344791
West View,12.5264714,-81.7365167
Los Cables,12.5270046,-81.6782031
Barco Hundido,12.5327463,-81.6911431
Padi,12.5343869,-81.7411383
Blue Diamond,12.5355236,-81.7359749
Trampa Tortuga,12.5372576,-81.6819003
Punta Padi,12.5379959,-81.7471881
La Parguera,12.5452956,-81.68106
Cantil del Barco,12.5507909,-81.7495408
Las Esponjas,12.5541535,-81.7384494
Dedos de Morgan,12.5594025,-81.7381973
Reggae,12.5687725,-81.7414742
Trilogia,12.5832678,-81.6750943
Cantil de Los Recuerdos,12.585564,-81.7265179
La Piramide,12.5868761,-81.6816483
La Montanita,12.5895003,-81.7208041
Bajo Bonito,12.5947486,-81.7245012
La Roca,12.5949126,-81.7147543
Bajo del Hospital,12.5988487,-81.7097128
Cantil del Hospital,12.6008168,-81.723829
Corde Point,12.617833,120.5094992
Bajora Cinco,12.6186109,120.4622221
Shipwreck,12.6215003,120.4980556
Apo 29,12.6338052,120.443944
South Corner,12.6546944,120.4171666
Southeast Corner,12.6554724,120.4181938
Mabuti,12.6564163,120.4112491
Barracuda Point,12.6576662,120.4188881
Jack's Point,12.6594722,120.4441934
Aladin,12.6618327,120.4166663
Ego Wall,12.6663332,120.4105276
Shark Airport,12.6681387,120.4326389
Shark Encounter,12.6707774,120.5543055
Manta Point,12.6713333,120.4323611
Galeon Point,12.6862221,120.5464997
Sir Daniel Point,12.6900558,120.5408328
Shark Ridge,12.719804,120.4874163
Prado Point,12.7358912,120.4621146
HTMS Khram,12.9331721,100.6888948
Devil's Table,13.0124229,-61.2497593
Stratmann Wreck,13.0133159,-61.2500594
Freights Bay,13.0529211,-59.5352343
SMS Cormoran,13.4593005,144.6544533
Tokai Maru,13.4593927,144.6544299
Rockport,13.8302954,120.9087054
An Dlo,14.4738766,-61.0080038
Franciscus,15.2753017,-23.7597043
Tuna Point,15.2776471,-23.7597994
Atlantis watersport,15.5452123,73.7612119
L'Aquarium,15.850237,-61.5916944
Pointe du Gouvernail,15.8614736,-61.646976
Pain de Sucre,15.8650393,-61.6003257
La Baleine,15.8800649,-61.5870059
The Maze,16.1127403,-86.9490156
Pointe Carangue,16.1660169,-61.788323
Buste du Commandant Cousteau,16.1667037,-61.7883334
Le Jardin de Corail,16.1671466,-61.7882864
La Piscine,16.1671504,-61.7896373
Pointe Barracuda,16.1673513,-61.7923785
L'Aquarium,16.1687527,-61.7905063
Source chaude,16.1692429,-61.7909134
Boa Vista Diving,16.1699107,-22.9139016
Coral Garden,16.222117,120.0487637
Eagle Bay,16.9402373,54.798294
The Wall,16.9426945,54.804763
Aquarium,16.9462204,54.8045232
Flamingo Beach: New Entry,16.9500559,54.8192384
Flamingo Beach: Side Entry,16.95053,54.8188777
Flamingo Beach: Beach Entry,16.9512786,54.8158953
China Wreck (direction 150deg),16.9678903,54.707109
ABT Salalah,17.0087552,54.1517412
Half Moon Wall,17.2082863,-87.5358197
Long Caye Aquarium,17.2130056,-87.6075978
Hol Chan Cut,17.8627707,-87.977162
Aquarium,18.3644497,-69.0248231
The Wall,18.3708321,-69.0038486
Daharat Abida,18.5028321,38.5989095
Isar Island,18.5740921,38.7418876
Astron,18.7304726,-68.4539093
Karam Marsmarit,18.7979372,38.777359
Dibsel Island,18.9018669,38.5891953
Playita,19.2944746,-69.2077604
Cali Ship Wreck,19.2985241,-81.3828514
USS Kittiwake Shipwreck,19.3620753,-81.4013551
Shaab Jimna,19.441989,37.7296579
Umbria,19.6367031,37.290526
"SS Umbria, Wreck",19.6367128,37.2906381
Kissimmee,19.6956972,-79.880304
Cemetery Reef,19.6984833,-79.8789641
Five Rocks,19.7570957,-70.5489664
Laramar,19.7690371,-70.5175386
3 Rocks,19.7727934,-70.5135665
Sanganeb Plauteua N,19.7788503,37.4465546
"Shab Rumi, Plateau S",19.9292342,37.4120877
"Shaab Rumi, Precontinent 2",19.9389634,37.4042343
Blue Belt,20.22675,37.3152166
Akumal Dive Shop,20.3968457,-87.3134434
The Body Shop,20.6277127,-87.0737254
The Back Side,20.6300027,-156.4959859
Flying Sea Cliffs,20.6304686,-156.4942032
Edge of the World,20.6308247,-156.4985786
Tako Flats,20.6325031,-156.4980376
Enenue,20.6331437,-156.4952669
Middle Reef,20.6338539,-156.4969171
Shark Condos,20.6341202,-156.4950612
Reef's End,20.6348164,-156.4977891
Merlo Reef,20.844637,37.4186797
Gota Mesharifa,20.8608834,37.3190921
Angarosh,20.8632051,37.4380164
Pfeiffer Reef,21.5851974,37.1018372
Abu Seif,21.7861348,37.0023768
Sweet Potato,21.8060622,36.9789438
"Elba Reef, South Plateau",21.9664172,37.0250213
Elba Reef,21.968583,37.0254548
"Elba Reef, West-Plateau",21.9691591,37.0241608
"Elba Reef, North Plateau",21.9699494,37.0270919
Elba Reef East (Southplateau),21.9827164,37.0406829
Levanzo,21.9877615,37.0452371
Levanzo Wreck,21.9878634,37.0452519
Elba Reef West (Fingers),22.0044081,37.0004202
Elba Reef East (North-Plateau),22.018038,37.011734
Cueva El Brinco,22.0756975,-81.0561235
Shaab El Shaga,22.1182936,36.8670544
Cueva de los peces,22.1665013,-81.1378243
Al Fahal South,22.223167,38.968
Sand Island,22.253333,39.023667
Al Fahal vis Wreck,22.2545,38.952667
Al Fahal East,22.291333,38.970667
Al Fahal North,22.305,38.968667
Rose Reef,22.306333,38.885333
Shi'b Nazar,22.318667,38.853667
North Long Reef,22.343167,38.854333
Garden Reef,22.369167,38.892833
Middle Reef,22.373333,38.855333
Cave Reef,22.385833,38.856
Aquarium Reef,22.387667,38.918667
Cement Reef,22.392167,38.854
Wreck of Grumman HU-16 Albatros Aircraft,22.3923132,36.5009282
Horse Shoe Reef,22.421667,38.951667
Shark Reef,22.425667,38.9915
Habili Dibia,22.4418574,36.6043807
Sha'ab Ohroob / Wreck of Sabri Baba 1,22.626611,36.5593464
Dabaisha,22.6392711,121.4929505
Siyal Island,22.8,36.183333
Dangerous Reef,23.340197,35.8553141
Habili Ali,23.3994861,35.984371
St John's Habili Gaffar,23.426923,35.8763941
Habili Omran,23.515712,35.8143568
Rocky South,23.5611404,36.2462919
Rocky West,23.5630773,36.2422942
Rocky East,23.5644383,36.2492616
Rocky North,23.5658256,36.2454923
Habili Zabargad,23.60178,36.18395
Khanka,23.6166601,36.2047145
Big Stone,23.6186333,36.2037666
East Point,23.6186333,36.2037666
Neptuna,23.6186333,36.2037666
South Point,23.6186333,36.2037666
Zabargad Jetty,23.6186333,36.2037666
Farsha Ergein Farayed,23.6333197,35.8874845
St John's Caves,23.6366824,35.8249781
Abu Fendira,23.661742,35.6964683
Abu Echera,23.8147933,35.7858758
Sirnaka Island,23.8292123,35.808667
Turbo,24.0065731,35.6340114
Abu Diab,24.05403,35.69067
Shaab Sataya Amphoren,24.1552833,35.685
Sataya South,24.1564359,35.7108504
Shaab Sataya,24.1577,35.7118333
Sataya East,24.15956,35.71657
Shab Sataya N-W,24.1671377,35.6755429
Gota Sataia 1,24.1853193,35.6514175
Shaab Malahi,24.1970524,35.660738
Gota Sataia 2,24.1978179,35.6528478
The Cortez Club,24.2035416,-110.3003817
Adantia K.,24.20885,35.56045
Shaab Ini,24.2182333,35.5951
Shaab Claudio,24.2201005,35.6120577
Abu Galawa Kebir,24.2286658,35.5727769
Shaab Maksour South,24.238811,35.6542264
Shaab Maksour North,24.2422132,35.6498051
Abu Galawa Soraya,24.2541166,35.5404
Shaab Hamam,24.2613,35.51712
Shaab Said South,24.2623827,35.5161726
Ukon Denchi,24.2670624,124.0907609
Shaab Said North,24.2681362,35.5118303
Shaab Said Nord,24.27205,35.5085666
Middle Book,24.290812,124.0955032
Shaab Bohar Soraya,24.2922333,35.5387833
Shaab Bohar Kebir Ost,24.295131,35.534869
Um El Sheikh,24.3127291,35.3990704
Shaab Sakara,24.3747755,35.3662804
Siyal South,24.3784303,35.3846562
Hamada,24.4383333,35.2131166
Shilineat,24.669924,35.133319
"Torfi, Wadi Gamal",24.674982,35.1457889
Gota Wadi Gamal,24.6913821,35.1460703
Nakanojima Channel,24.8126365,125.1422811
Antoniogaudei,24.8206072,125.1367128
Toriike,24.8238108,125.1350391
Hanadainone,24.8646379,125.1794846
Habili Radir,24.86538,35.11724
W-Achi,24.8665753,125.1600582
L-Achi,24.8666616,125.163257
Marsa Nakari South reef,24.9262582,34.9635606
Marsa Nakari North reef,24.9278382,34.9629789
Daedalus Reef South Plateau,24.9307762,35.8701908
Daedalus Reef,24.932763,35.8708939
Shaab Nakari,24.9425549,34.9851324
Legend,25.072444,34.9373952
Elphinstone reef,25.3073616,34.8606287
Abu Dabab 6,25.3248029,34.7983978
Abu Dabab 4,25.34062,34.79488
East Abu Dabab 3,25.3441825,34.7774058
Heaven,25.3468646,34.7767845
Ras Shona,25.4684135,34.6819826
Shaab Shona,25.4698771,34.6828121
Triumph Reef,25.4741304,-80.1080594
Snoopy Island,25.4926007,56.3635239
Marsa Mares Bay,25.5095405,34.6521265
El Casra,25.5464437,34.6409603
Dibba Rock,25.6034329,56.3502417
El Sheig Malik,25.7236346,34.549773
Sham Fugami,25.8701711,34.4220774
Maheleg,25.9025849,34.4131047
Novotel House Reef,25.9540108,34.3817107
Soug Bahar,25.9823079,34.3473762
Flamenco Hausriff,26.1653439,34.2456192
Sakubaru,26.1773273,127.2745971
Sakubaru Gyosho,26.1793895,127.2755939
Akasanbashi Mae,26.1844702,127.2790989
Nishi Hama,26.2026775,127.289473
Ufutama,26.2066203,127.3167776
Ibo-ibo Sango,26.2149439,127.2868536
Gahi Ura,26.2152559,127.287906
Adan Mae,26.2154634,127.2930042
Shiru Higashi,26.2172875,127.3099786
Agenashikueda Sango,26.2188955,127.2938405
Ama Ushiji,26.2196483,127.2803828
Gahi Mae,26.2201294,127.2885224
Uroro no Sachi,26.2233739,127.2926197
Ama Beach Mae,26.224414,127.289969
Nita Doukutsu,26.2393817,127.2928487
Aida,26.3138104,34.8432379
Numidia,26.3156833,34.84145
Sunabe,26.3291056,127.743972
Salem Express,26.6397175,34.0615772
Middle Reef,26.7050917,34.0996195
Panorama Reef East,26.7539976,34.0827562
panorama Reef North,26.757536,34.0784061
Aluminium,26.7666652,33.946426
Sandy Island,26.8150661,33.9785314
Tobia Hamra,26.8312268,33.9859068
Tobia Arbaa,26.836288,33.991287
Soma Gatden,26.8382668,33.9964122
Ras Abu Soma,26.840722,34.000684
Sharm al Naqa,26.9,33.966667
Sharm Rashid,26.94517,33.93396
Makadi Garden,27.00451,33.91343
Erg Abu Hashish,27.01056,33.92363
Abu Hashish Lagoon,27.01258,33.92393
Abu Hashish Drift,27.016663,33.92424
Tofa Abu Hashish,27.02569,33.91144
Ras Disha,27.0411335,33.9066738
Gota Abu Ramada - Aquarium,27.139,33.9532666
Aquarium,27.1393526,33.9546855
Shaab Tiffany,27.1500955,33.8945873
Abu Ramada South,27.158319,33.979164
Abu Ramada Cave,27.16058,33.98245
Abu Ramada - Ost,27.162831,33.984414
Sha`ab Quais,27.167161,33.951024
El Aruk Gigi,27.16942,33.95541
Abu Ramada Plateau,27.1734506,33.9846132
Balena,27.1782408,33.831981
Giftun Soraya,27.1856324,33.9787866
Shaabruhr Umm Gamar,27.1925,33.9091666
Ham Ham,27.193028,33.984654
Erg Somaya,27.19578,33.984
Aquarius Diving Club,27.19709,33.8450664
Erg Somaya Drift,27.19829,33.98408
Shaab Sabrina,27.2146731,33.9537019
Erg Sabina,27.21621,33.95421
Banana Reef,27.2210096,33.9512032
Ben El Gebel,27.2231368,33.9537536
Shaab Nenad,27.227837,33.9352761
Stone Beach,27.237597,33.928654
Blue Water House Reef,27.2394085,33.8492709
Dorfa El Fanus West,27.2645883,33.8816251
Shaab Pinky,27.2648011,33.9194156
Fanous East,27.267748,33.88751
El Fanadir Dacht Dacht,27.275816,33.8334747
El Fanadir Dacht,27.2847068,33.8317727
El Fanadir Foc,27.2963432,33.8311215
El Fanadir West,27.299403,33.83123
Sha'ab Bruce,27.3032589,33.8262069
Marsalis Abu Galawa,27.3114849,33.7999544
Carless Reef,27.3117631,33.9401961
Jotao Abu Galawa,27.31424,33.810292
Gota Abu Galaua,27.3145926,33.8102405
Shaab Samir,27.3213391,33.8077449
Sachua Abu Galawa,27.325622,33.795697
Shaab Umm Gamar,27.333448,33.9177183
Abu Salama,27.3416824,33.7829269
Abu Nugar,27.34571,33.83949
Umm Gamar,27.3528822,33.9084369
Umm Gamar West,27.3676227,33.906362
Shaab El Erg,27.3975,33.872222
Poseidon Reef,27.3992112,33.8623176
Dolphin House,27.40791,33.85376
Manta Point.,27.422122,33.882601
Giannis D,27.5774,33.9231833
Carnatic,27.5792666,33.92695
Chrisoula K,27.5805307,33.9287744
Kimon M,27.5816666,33.9302166
Arrecifal,27.6418663,-17.982086
Benthos Buceo,27.6428459,-17.9799421
Barge de Gubal,27.6779833,33.8046
Bluff Point,27.6812826,33.8080826
Ulysses,27.6867,33.8021333
Dunraven,27.7033333,34.1216666
Beacon Rock,27.7038233,34.127467
Satellite Reef,27.7244542,34.2575222
Yolanda Reef,27.7247011,34.2583484
Shark Reef,27.7257079,34.259035
Anemone City,27.7274421,34.2588554
Shark Observatory,27.7310555,34.2597859
Small Crack,27.7316476,34.0974959
Jackfish Alley,27.7441533,34.2569889
Ras Za'atar,27.7644345,34.2557039
Shag Rock,27.7731513,33.8846486
Marsa Bareika,27.7866024,34.2177797
Ras Ghozlani,27.7894435,34.2619429
SS Thistlegorm,27.814092,33.9200482
Ras Katy,27.8466578,34.3024876
Ras Umm Sid,27.847261,34.31648
Black Pearl - Red Sea,27.8527251,34.2717691
Pinky Wall,27.8708333,34.3233333
Hole in the Wall,27.8717756,-15.3822128
Tower,27.8822916,34.3262218
Sodfa,27.898308,34.3300597
Near Garden,27.9081038,34.3467116
Red Sea Diving College,27.9094107,34.3263071
Middle Garden,27.9129604,34.3511212
Far Garden,27.9150053,34.3588754
Shark's Bay,27.946547,34.3882994
Shark's Bay,27.9504099,34.3861399
White Knight,27.9566666,34.4
Ras Bob Reef,27.963333,34.413333
Ras Nasrani,27.9635263,34.4185241
Ras Ghamila Reef,27.98,34.436667
Gordon reef,27.9848747,34.4535967
Louilla,27.9895604,34.4535007
Thomas reef,27.9921659,34.4614807
Jackson reef,28.0059666,34.472557
Laguna Reef,28.0064435,34.4845061
Kormoran,28.0166667,34.4933333
Kormoran,28.0333332,34.4933332
Hafenmauer,28.0485048,-14.3641009
Million Hope,28.0563889,34.4491711
Hey Daroma,28.0567379,34.4482631
Buceo Norte,28.1512513,-15.6951328
Gabu El Bint,28.353708,34.433307
The Caves,28.4168114,34.4565242
Umm Sid,28.4206141,34.4576882
3 Pools,28.4355923,34.4577903
Moray Garden,28.436899,34.4586269
Golden Blocks,28.439063,34.4660256
South Oasis,28.44322,34.469712
Napoleon Reef,28.471104,34.509963
7 Pinnacles,28.473125,34.497519
The Islands,28.4772304,34.5132459
Sunsplash Housereef,28.486668,34.516587
Poseidon,28.4959352,34.5167545
Light House,28.4984313,34.5206951
Sea Dancer,28.498434,34.5177424
Sea Pioneer,28.4995148,34.5194037
Eel Garden,28.5053487,34.5212322
Abu Helal,28.542381,34.516867
Canyon,28.554359,34.5212059
Reeks Reef,28.563914,34.529901
Saddle,28.5720833,34.5375978
Blue Hole,28.5723028,34.5373553
The Bells,28.5734535,34.5392697
Ras Abu Galum,28.611198,34.555709
Dahayla South,28.6117235,34.5535349
Dahayla North,28.6147761,34.5600502
Ras Malah,28.7289145,34.6257147
Las Toninas,28.8615371,-13.8604963
Puerto del Carmen (west),28.9196145,-13.6759375
Puerto del Carmen (east),28.9205562,-13.6715704
CB Timanfaya,28.9213052,-13.6666138
Plane wreck,29.4180629,34.97162
Tank,29.4187751,34.9716597
Gorgon 1,29.426193,34.9721236
Japanese Gardens Coral Reefs,29.429928,34.97325
Cedar Pride Shipwreck,29.4310657,34.9731609
Rainbow reef,29.4325243,34.9737847
Yatouche,29.5038889,34.9197222
Aqua Sport,29.5124443,34.9248821
Cedar Pride,29.5216667,34.9883333
Soufa,29.5447222,34.9539555
USS Massachusetts,30.295667,-87.312033
Vortex Spring,30.7706697,-85.9483797
Arbolitos,31.6936322,-116.6759127
Kennedy,31.7014118,-116.6848113
Atalaia Diving,32.6418949,-16.8298615
Avalon Dive Park,33.3490985,-118.3246588
AQUA MATE,34.2018157,139.1366369
TEARS BLUE DIVING,34.2064941,139.1339573
MAV Achaios,34.605012,32.9294507
Constandis,34.6801605,33.0845713
Lady Thetis,34.682167,33.0836652
Laboe,34.7167278,32.4438061
Vera K,34.7214662,32.4285004
White Stars,34.7326792,32.4148958
Amphitheatre,34.8569251,32.3480621
Church Bay,34.8588584,32.3470594
Elpida,34.961077,33.6921459
LEF1,34.963877,33.6811846
Kerynia,34.978448,33.980894
Nemesis III,35.049774,34.0365098
Liberty,35.0507707,34.0362195
Lygaria,35.4022795,25.0280717
Mononaftis,35.4082835,25.0230868
Fiz,35.7848964,139.9030077
Colors Diving Pro Shop,35.8267698,139.9141605
Wreck of SS Margit,35.8904822,14.5227148
HMS Maori,35.9028853,14.516028
Lantern Point,36.0037451,14.3251669
Lantern Point West,36.0046738,14.3257677
Wreck of the P31 Patrol Boat,36.009265,14.3236863
Crystal Lagoon,36.0100895,14.3277632
Alex's Cave,36.0105408,14.3251669
Blue Lagoon Tunnel,36.0106363,14.3262397
Cominotto Arch,36.0119901,14.3193411
Anchor Reef,36.0125369,14.3177103
Fessej Rock,36.0154267,14.2757498
MT Hephaestus,36.0167721,14.2900963
Wreck of the Xlendi,36.0168282,14.2850034
MV Karwela,36.016902,14.2862962
Wreck of the Cominoland,36.0170756,14.2871545
Santa Marija Caves &,36.0179931,14.3402297
Santa Marija Reef,36.0190367,14.3404233
Xlendi Tunnel,36.0296422,14.214495
Big Bear-Little Bear,36.0515249,14.1880935
Marsalforn Jetty,36.0749536,14.2586424
Xwejni Bay,36.0791713,14.2480852
Cathedral Cave,36.0810848,14.2300776
Billinghurst Cave,36.0811776,14.2354259
Billinghurst Cave,36.0812516,14.235361
Cave of Wheat,36.0813539,14.2302155
Double Arch Reef,36.0817379,14.2465145
Calypso Cave,36.0817449,14.2486946
Camp Bay,36.1192631,-5.3516265
Shark Sculpture,36.1908981,29.6091391
Archangelos Cave,36.2025045,28.1425738
Kalithea,36.3776033,28.2372284
Waterhoppers,36.4477122,28.2263974
Psarapoula,36.453164,28.2169361
Dolphin's Dream,36.6479518,138.2274805
Buceo Costa Nerja,36.7515097,-3.8660532
CB iSub,36.7610456,-2.1112219
CB Alphasub,36.7627599,-2.1041183
Nice Diving,36.7933006,3.2869401
fighter plane wrack world war II,36.8275723,25.4221525
Aksona,36.9599139,27.4864435
CB Almasub,36.9897353,-1.9012368
Olga Sport,37.5192215,15.1058947
Cala Cerrada,37.540948,-1.153609
Cala Roja- Cabo de Palos,37.6325832,-0.6900091
Kerveli scouba diving,37.7325497,27.0360789
Canyon di Angelo,37.8490292,15.3017825
Canyon del Diablo,37.8495383,15.3016382
Grotta del Cristo,38.2513611,15.2339167
Secca di Ponente,38.2747172,15.2224678
Secca di Levante,38.2762968,15.2436161
princess alice bank,38.4046516,-29.9476204
CB Costa Campello,38.4314687,-0.3868671
High Bridge,38.4459576,141.4453874
CB Profundo Azul,38.5069342,-0.2275569
CB Alisub,38.5085906,-0.2187457
Apogon,38.5623335,14.5803242
Bludive Salina,38.5801368,14.8378928
Les Basetes,38.659291,0.0852322
Grotta dei Gamberi,38.6949666,13.1830126
Le Piramidi,38.7002335,13.152312
Arco de Formentera,38.7238068,1.3864794
Palma Wracks,39.5435415,2.630957
SS Probitas Shipwreck,39.8705153,20.0116347
Punta des Murter,40.0681714,4.138814
Aquario Nord,40.1018821,18.5157254
La Reggia,40.1280423,17.9950566
Santa Caterina,40.1386562,17.9818411
Salento Nautica,40.2641586,17.8933228
All Things Aquatic,40.3814068,-79.9987816
Cala d'Oliva,41.0803752,8.3352736
Grotta di San Francesco,41.2303935,9.4827192
Fintastic Diving,41.2945025,-72.7822007
Amigos do Mar,41.6852673,-8.8461241
Roca Montiell,41.915449,3.2129398
Badia de Tamariu,41.9172405,3.2084694
House Reef,41.9176257,3.2093751
Canons de Tamariu,41.92021,3.2218042
Aigua Xelida,41.9212911,3.215998
Cala des Tramadiu,41.9295692,3.2166427
Aiguablava,41.934412,3.2165735
Barda de l'Illa Negra,41.9442364,3.2290305
Cap de Begur (Buceig),41.9502697,3.2338312
Barda de Pere el Flaquer,41.9530174,3.2322495
Barda de Fitor,41.9576006,3.2367038
sa Tuna,41.9610527,3.2316315
Punta des Plom (Buceig),41.9628965,3.2335401
Cala d'Aiguafreda,41.9637833,3.2287675
Les Alzines,41.9654983,3.2330233
Cala de Cap sa Sal,41.9656764,3.2309582
Cala de sa Riera,41.9741581,3.2118597
Boia dels Ulls de Llop,41.9743614,3.2196542
Tasco Petit,42.0410957,3.2268263
Carall Bernat,42.0414835,3.2286086
Tasco Gros,42.0420658,3.2279425
les Ferranelles,42.0421812,3.2254886
Dolfi Sud,42.0437364,3.2264109
Dolfi Nord,42.0442477,3.2258048
Cova de la Reina,42.0465633,3.2249746
la Vaca,42.0473849,3.2256198
Calypso Diving,42.0493885,3.1962005
la Pota del Llop,42.0493917,3.2262165
el Salpatxot,42.0495342,3.22052
el Medallot,42.0518457,3.2210025
les Salines,42.0609543,3.2153709
Negre del Falaguer,42.0660198,3.2106594
el Rossinyol,42.068088,3.2126259
el Reggio,42.0810324,3.2018565
la Ferriola,42.0844478,3.1971438
ProDiving Montenegro,42.2681218,18.8926644
Costa Verde Loisirs,42.3383589,9.5397283
L'Incantu,42.4069356,8.6463851
Pelleteuse,42.4812049,3.1392682
Club le Rederis,42.4812079,3.1331576
Odyssub,42.6698439,2.8984355
Scoglio di Remaiolo,42.7100149,10.4126341
Secca di Fonza,42.7328955,10.2839687
Sottolonda,42.7606356,10.3120436
Cerboli Anchor,42.8553143,10.5464738
Capolupi Sport,42.9336656,10.785341
Haut Fond de Centuri,42.9879751,9.295627
Le Sec Aux Murennes,43.00134,6.15444
Michel C,43.0114667,6.1441
Underwater path for snorkelling,43.0136617,6.3909956
Mustang P51,43.0363289,6.078642
Arroyo,43.0483396,5.8697301
L'escale,43.0655768,6.1472884
Le Tromblon,43.066654,5.9055537
Wildcat,43.1007264,6.3860343
Kenavo,43.1362076,6.3737601
Les Quairolles,43.1550974,6.6332209
Petit Sec,43.1576958,6.6231304
La Dent de Requin,43.1598451,6.6235006
Calanque de Figuerolles,43.166283,5.5963
Togo,43.1680513,6.5925729
L'Enfer de Taillat,43.1693316,6.6505761
Bosse du Chameau,43.1709683,5.3961359
Eden Dive,43.1710254,5.6055879
Tombant de David,43.1730559,5.3943411
Cala maussana,43.1737117,5.3982744
Calanque des Contrebandiers,43.1738983,5.3857083
Iles des moyades,43.1767333,5.3703333
Moyadons,43.1780667,5.3684833
Tunnel de planne,43.18895,5.385
Grotte Arc en Ciel,43.1968167,5.3636333
Pierre de Briancon,43.1969265,5.3615145
Arche du plannier,43.1979667,5.2235667
Le Chaouen,43.1987,5.2288167
Le Dalton,43.19975,5.23065
Messerschmit,43.2001333,5.2297333
Les Canons,43.2029076,5.4551918
Grotte de la Triperie,43.2032972,5.4516116
Les Capelans,43.2050775,5.4267145
Exsurgence de Port-Miou,43.2051748,5.5129118
Les Veyrons,43.2068667,5.2535333
Tombant des pharillons,43.2072875,5.3378956
Les fromages,43.2101465,5.3402094
Tiboulen de Maire,43.2134982,5.3251446
Ker-Bihan,43.230333,5.316667
Dune,43.2427526,5.3670868
Cavau,43.2638333,5.28575
Pierre fendue,43.2647,5.2843
Amphores du frioul,43.266369,5.2972538
Junker 88,43.2746833,5.2867
Tiboulen de frioul,43.2804167,5.2862833
Nord Ratoneau,43.28545,5.3050833
Saint Dominique,43.3100667,5.3464833
Rocher de la Garde (les Sardinaux),43.3127198,6.6853148
Tombant des Sardinaux,43.3147787,6.6865084
Baume Rousse,43.3313798,5.239625
Nauga,43.3682039,-8.387693
Wrack Ribolovc,43.3712382,16.3622156
Erretak,43.3953,-1.74876
Le ponton de la bordelaise,43.4246283,3.7001817
Francesca da Rimini,43.72182,15.6745446
Plavi Jadran,43.7259359,15.7863515
Moana,43.7854894,15.6417072
Fundiving,43.797432,15.6420578
AQUANAUT,43.822421,15.584026
Nautilus,43.8280728,15.5968993
Foux de Pompignan,43.8767012,3.8538703
Educational underwater trail Tripuljak,43.8990934,15.1496579
Cristo redentore,44.0235229,8.2266613
Source de l'Esperelle,44.1207633,3.2095251
Source de Marnade,44.2521023,4.4410032
Punta del Faro di Portofino,44.2979433,9.21842
Chiesa di San Giorgio,44.3007948,9.2112846
Casa del Sindaco,44.3030147,9.2022082
Punta Vessinaro,44.3041118,9.1984192
Punta dell'Altare,44.3054884,9.1958281
Scoglio del Diamante,44.3077446,9.1877822
Wreck `Mohawk Deer`,44.308127,9.1902937
Testa del Leone,44.3082302,9.1836992
Andrea Ghisotti (ex Scoglio del Raviolo),44.3084954,9.1798881
Targa Gonzatti,44.3087359,9.1787931
Secca Gonzatti,44.3090325,9.1780292
Colombara,44.3105483,9.1764685
Punta della Torretta,44.3121166,9.1658905
Dragone,44.3121659,9.1754161
Punta dell'Indiano,44.3125993,9.1691529
Christ of the Abyss,44.313304,9.1752633
Punta della Targhetta,44.3211417,9.1473911
Secca dell'Isuela,44.3214129,9.146001
Presepe degli Abissi di Albisola,44.32673,8.510981
Fontaine de la Burle,44.3669135,3.4102964
Trou Madame,44.4507847,1.754216
Goule de Marcenac,44.4938899,1.6536006
Source du Tirondel,44.5095678,1.7946252
Marche-Pied,44.5401129,1.7650104
Brockville Underwater Sculpture Park,44.5920153,-75.6772406
Lock 27,44.7775281,-75.399561
The Conestoga,44.779497,-75.3933132
Gouffre de Cabouy,44.7902569,1.5845039
Gouffre de Poumayssen,44.7909084,1.5932728
Font del Truffe,44.8250173,1.55079
Canyon,44.8698976,14.7723539
Source de la Finou,44.8793032,1.6149012
Fontaine Saint-Georges,44.8894714,1.6190594
Baron Gautsch,44.940278,13.577778
Silent Beach,45.0725137,14.6835869
100 Steps,45.0762538,14.6804754
Secret beach,45.0784904,14.6758884
Lamkra,45.0804204,14.152071
Lina wreck,45.1024305,14.2790667
Star Fish,45.1436486,13.601265
Peltastis,45.1603856,14.6457184
Caroline Rose (Schooner),45.2422472,-81.5762028
The Caves,45.2455526,-81.5234365
Niagara II (sandsucker),45.2500264,-81.6025721
City of Grand Rapids (steamer),45.254884,-81.6808202
Sweepstakes (schooner),45.255239,-81.6808551
El Hawi Star Wrack,45.3183424,14.4363449
Grotte de la Passerelle,45.3495874,5.7694316
Mare Sub,45.4800691,9.2112771
Sub-Net potapljanje,45.5303516,13.5648604
Grotte des Eaux Mortes,45.7329332,6.100116
Le France,45.897655,6.149522
Lago di Lugano-Relitto Milano,45.90542,8.97972
Lago di Lugano-Lido di Riva S. Vitale,45.9065088,8.9739802
Lago di Lugano-Parete di Riva,45.92197,8.97039
Lago di Lugano-Campeggio Paradiso,45.9228576,8.9786354
Buco della Sovaglia,45.933823,9.0045781
Sorgente Bossi-Sorgente Bossi,45.95658,8.99413
Lago di Lugano-Il Deserto,45.95952,8.88019
Lago di Lugano-Le Macchine,45.96247,8.87034
Lago di Lugano-Parete di Caslano,45.96411,8.88666
Les Joyeux Corsaires,45.9817397,-1.3928517
Lago di Lugano-Lugano-Sub,45.98572,8.95624
Lago di Lugano-Acquedetto,45.98656,8.95633
Sentiero di Gandria,46.0011259,8.9853452
Foce del Casserate,46.0018031,8.9617273
Porto,46.11792,8.71011
Porto alla Ressiga,46.1205,8.714
Lago Maggiore-Sud,46.12069,8.78216
Lac de Moiry-Rochers de Paris,46.12352,7.57191
Porto Ronco Beach Club,46.1331908,8.7193579
Lago Maggiore-Centro Sub del Gambarogno,46.13827,8.81558
Lido Locarno,46.16158,8.80553
Aqua Tenero,46.17372,8.84311
Officine Elettriche,46.18155,8.8543
Gola di Ponte Brolla,46.1862014,8.7506174
Les Iles,46.2138,7.33133
Ponte,46.22243,8.85717
Ponte Corippo,46.24083,8.84389
Cascata Riale Salto,46.2511007,8.7067593
Le Duzillet-Gouille Duzillet,46.28901,6.96165
Pozzo San Rocco,46.29366,8.79488
Pozzo del Diavolo,46.33794,8.80616
Lac de Taney,46.3446999,6.8348079
Gola del Lupo (Wolfsrachen),46.34502,8.61169
Brontallo,46.35424,8.645
Oberhalb Brontallo,46.35844,8.64319
Ecole de Mission,46.38839,6.8453
La Croix,46.3885012,6.8193459
Falaise Bikini,46.38856,6.81925
Arnensee-West,46.39372,7.2178
Arnensee-Ost,46.39397,7.22083
Plan di Mort,46.41536,9.718
Halbinsel Sasc da Corn 1,46.41819,9.72642
Halbinsel Sasc da Corn 2,46.41927,9.72822
La Graule Subaquatique,46.4357615,1.9008211
Campingplatz,46.4550369,9.7903276
Scheggia,46.4665801,8.6499199
Coluonnas,46.46963,9.72681
Les Gonelles,46.46987,6.81539
La Pichette,46.47008,6.81049
Sassello,46.4750999,8.6365499
Plage Cully,46.48895,6.74141
Laghetto Moesola immersioni,46.4935405,9.1700693
Lago Ritom,46.54232,8.68292
Lago Cadano,46.54849,8.70767
Gul,46.56508,9.35616
Im Gufer,46.57066,9.37486
Presqu`ile,46.61875,7.15125
Gipsunion,46.6590842,7.7482801
Reefballs,46.6648632,7.7326733
Lac du Joux,46.6677216,6.3251517
Schwarzsee,46.669852,7.2871572
Nastel,46.6805365,7.7529282
Grosse gelbe Wand,46.6809885,7.7589372
Kleine gelbe Wand,46.6814082,7.7502659
Balmholz,46.6818688,7.7682867
Seezeichen,46.6825469,7.7040176
Wasserfall,46.6832912,7.7838446
Frankenstein,46.6847177,7.6998283
Frau Tschanz,46.6864059,7.7461363
Fischbalme,46.6879333,7.7440709
Pont Thusy,46.688886,7.1078071
Ruedi-Walter Platz,46.6905851,7.7431254
Sur Momont,46.69155,7.11139
Ehem Seepolizei,46.69602,7.93617
Niesen,46.7079324,7.7224258
Stampach,46.7082046,7.720677
Entenecke,46.70961,7.715711
Matterhorn,46.710323,7.7141447
Gunten Bad,46.7117425,7.7072633
Schneckeninsel,46.7161787,7.9723976
Schulhaus,46.7179574,7.9320611
SS Anglo-Patagonian,46.72754,-2.41823
Churchillplatz,46.72755,7.67064
Aarebecken,46.75177,7.63698
Alpenblick,46.7706,8.64261
Bootsplatz,46.7738822,8.3501952
Kiesstrand,46.7741,8.274
Rechte Dammseite,46.77522,8.30152
Seemitte,46.77527,8.30683
Lauenen,46.80136,8.16945
Alter Stollen,46.81522,9.85152
Strandbad,46.8152548,9.852155
Galerie,46.8170937,9.8468915
Seehorn Wand,46.8171001,9.0876699
Lag la Cauma,46.8195333,9.2949237
Bootshaus,46.82241,9.85076
Kleingurmels,46.88086,7.18454
Hafen Sust,46.88769,8.24306
Seegarten,46.9165013,8.5943065
Bacheinlauf,46.92028,9.35683
la motte,46.9250491,6.9222264
Pointe du Grain,46.92576,6.8372
Schildegg,46.92827,8.581
Aube,46.94081,-2.48475
Mapraggsee-KSL,46.9412957,9.4789423
Werkhof,46.9421528,9.4804097
La Motte,46.94278,6.90409
La Madonne,46.94573,6.97767
Boudry Plage,46.9490376,6.8709418
Grottoni,46.9512082,8.5874184
Sisikon,46.953833,8.619344
Mettmenalp,46.95755,9.09892
Giglio,46.9578159,-2.3281802
Schiefernegg,46.9589848,8.6147984
Gorges de l'Areuse,46.9625879,6.8210554
Robinson,46.9633171,6.8739991
Grenzstein,46.96952,8.30972
Badeplatz,46.9716961,8.322819
Hammerschmitte,46.97658,7.46392
Serrieres,46.9786111,6.8971111
Lopper Rote Route 1,46.98125,8.31192
Schillerstein,46.9828971,8.5967367
Wolfsprung,46.9845,8.61183
Strandbad Kindli,46.98894,8.54853
Kindli,46.9911988,8.5577854
Cholplatz,46.9929362,8.5130964
Bootshafen,46.993486,8.5161113
Maison du Plongeur,46.99412,6.94803
Kehrsiten Forrest,46.99421,8.3562
Ober Nas,46.9954817,8.4736674
Eichwald,46.9976481,8.5698271
Edmund Fitzgerald,46.9988735,-85.1097913
Obermatt,47.0021659,8.4312797
Lido,47.0026205,8.4853456
Vitznau,47.012486,8.482365
Riedsort,47.0233655,8.4573757
Bildstock,47.0236096,8.4674288
Riedsort,47.0239213,8.4538682
Holzlager,47.0538304,8.4275429
Hagneckkanal,47.06042,7.17512
St. Joux,47.06667,7.10942
Hundloch-Quelle,47.06755,8.91914
Strick,47.0726435,8.4975807
Egg,47.0764029,8.5260089
Fischchratte,47.0790088,8.4870116
Antonos Stratos,47.08397,-2.60405
Chlausenegg,47.0863332,8.5228746
Twann,47.0931445,7.1572114
Rossblatten,47.09394,8.5192
Strandbad,47.09531,7.16326
Lido,47.0959441,8.5163224
Talalpsee,47.096656,9.1340837
Rampe,47.10441,8.79933
Grafstatt,47.1090164,8.5030141
Grafenmatt,47.1123463,8.5013571
Hafen,47.11306,9.20817
Bommerstein Hafen West,47.11389,9.28686
Broder,47.11427,9.27177
Bommerstein Hafen Ost,47.11466,9.28828
Lothenbach,47.11555,8.4996686
Teufwinkel,47.11614,9.18839
Lediwracks,47.1167378,9.2930303
Einbaum,47.1190472,8.496409
Rastplatz,47.12394,9.14187
Nidaukanal Rest. Blue Marlin,47.12441,7.22948
Nidaukanal,47.12469,7.22935
Josen West,47.1293,9.26487
Laui,47.1296841,9.2059129
Schiffsstation Stralegg,47.1344246,9.1459881
Kraftwerk,47.13816,9.13433
Tunnel 1,47.13844,9.13011
Rigiblick,47.1455607,8.5054266
Altstadt,47.166338,8.5141304
Vorstad,47.1692812,8.5140772
Leuzigen,47.1815,7.44965
Strandbad,47.18611,8.27681
Insel,47.19441,7.48634
Stadt Solothurn,47.20375,7.5342
Linthkanal Ausstieg,47.2243278,8.984075
Alte Badanstalt,47.23116,8.6742399
Pontonierhaus,47.2371138,7.6542326
Risi,47.23841,7.74506
Vordere Au,47.2490333,8.651674
Meilibach,47.2514766,8.6285315
Leuenhaab,47.2516711,8.6921919
Pumpwerk Horgen,47.25703,8.6101399
Moana Evasion,47.258568,-2.3463207
Landungssteg Aesch,47.25861,8.22998
Landungssteg Obermeilen,47.2639733,8.6557195
Seealpsee,47.2694118,9.4002886
Seealpsee Einstieg,47.2694722,9.40025
Pumpwerk Meilen,47.271422,8.628337
Seehalde,47.27352,8.5837199
Strandbad Feldmeilen,47.2754724,8.6210824
Haus am See,47.2772099,8.6171101
Halbinsel,47.277758,8.615927
Park Feldmeilen,47.279623,8.6136007
Sandy Beach,47.28102,8.61245
Strandbad Thalwil,47.2889401,8.5740299
Segelclub Herrliberg,47.2894199,8.6034201
Zentenhof,47.29199,8.5724199
Strandbad Erlenbach,47.2969926,8.596972
Park Thalwil,47.30005,8.56348
Wird,47.31805,8.37294
Schoggiwand,47.31974,8.55306
Bad Egg,47.3212816,8.6966024
Bellerive 55,47.3241674,8.5760836
Schiffli,47.325167,8.575436
Widmerland,47.33147,8.54595
Hafen,47.34025,8.67872
Strandbad Niederuster,47.34252,8.69072
Strandbad Maur,47.34564,8.67508
Kraftwerk,47.36397,7.92187
Seerettungsdienst,47.3641612,8.77855
Ballypark,47.36838,7.99561
Diepoldsau Badi Einstieg,47.3797222,9.6722222
Diepoldsau Strandbad Einstieg 1 Badebetrieb,47.3799863,9.6718046
Diepoldsau Strandbad Einstieg 2 Winter,47.3805736,9.6722474
Diepoldsau Sportplatz,47.3823482,9.6724944
Matz Einstieg,47.3888889,9.6733333
Schmitter Zoll Einstieg,47.3933406,9.6697598
Creugenat,47.3963465,7.0272154
Hechenberg Nord,47.4589975,11.7143163
Alter Aarelauf,47.47872,8.19408
TCI-Parcours,47.4802629,11.7127015
Badi,47.48833,9.47717
Badi Goldach Einstieg,47.4883333,9.475
Uhlandbucht Horn Einstieg,47.4935972,9.4695751
Uhland-Ansaugstutzen Horn,47.4963889,9.4716667
Badi,47.4965,9.4655
Mole Ost,47.49652,9.46553
Blake Island Reef,47.5295753,-122.4945867
Baernkogl,47.5314341,13.504984
Klacklboden,47.5317675,13.4972527
Wiedenhorn,47.53833,9.40042
Strandbad,47.55164,7.7767
Sportpension Schober,47.5554619,13.6909315
Sylvensteinsee / Sylvensteinspeicher,47.5763084,11.5381548
SS Saganaga,47.5833032,-52.9785067
SS Lord Strathcona,47.588242,-52.9681451
PM-27,47.5994572,-52.9716262
SS Rose Castle,47.6013424,-52.9636225
Rheinau-Ellikon am Rhein,47.63786,8.59688
Kloster,47.6413895,8.6027099
Seegarten,47.6475,9.1988
Die Jura (Wrack),47.6499984,9.2249979
Eschenz-Stein am Rhein,47.6513817,8.8835254
Club subaquatique,47.65973,-3.20687
Camping-Hemishofen,47.66325,8.84245
Dorfbach,47.66708,8.9803
Landungssteg,47.6683773,8.9815993
Baywatch,47.67231,9.01035
Schupfen-Camping,47.6750952,8.7857067
Hemishofen-Rheinklingen,47.67558,8.82911
Rheinklingen-Schupfen,47.67594,8.80861
Camping-Strandbad,47.6769595,8.7817286
Krebsgarten Meersburg,47.6877852,9.2808529
Hafen-Kloster,47.6905157,8.7498325
Tegernsee,47.73805,11.71824
Wolfgangsee,47.7419181,13.3904783
Attersee Wandl,47.7901537,13.4876795
BMW Dixi,47.7918212,13.4853154
Badeplatz Nixe,47.8046072,13.5469422
Edmonds Underwater Park,47.8137076,-122.384577
Ofen,47.8496044,13.5528489
Steinschlag - Tafel,47.8571532,13.5588831
Tauchbasis Lorenc,47.8680361,16.3880653
Tauchsport Vienna,47.8688912,16.3839236
Steinwand,47.8811618,13.5686826
Unterwasserwald,47.9234956,13.5807556
Allmannshausen: Naturschutzgebiet,47.9255596,11.3323056
Allmannshauser Steilwand,47.9295219,11.3322561
Surfplatz,47.9325043,13.5845955
Taucherkiste Freiburg,48.0643717,7.8150303
Ilsesee Taucherbasis,48.2831616,10.8992581
South Bedford Island,48.311667,-123.603333
Barnard Castle,48.31211,-123.541408
G.M.A.P.,48.3814,-4.4864
Matschelsee3,48.4046783,7.8164032
Matschelsee 1,48.404905,7.8155929
Matschelsee 2,48.4050652,7.8180169
S. F. Tolmie,48.417403,-123.402219
Wacholderrain,48.4821785,7.7935389
Blue Luve,48.5566797,3.7107986
G.B. Church,48.67,-123.2866667
Ploum'Aqua,48.831649,-3.4849273
Baggersee Untergrombach (Metzgerallmend),49.0968008,8.5516959
Rothsee,49.2264381,11.1959964
Murner See - Einstieg Rutsch'n,49.3467165,12.1984037
Murner See - Einstieg Turm,49.3534212,12.200289
Whytecliff Park,49.3717094,-123.291608
Ansell Point,49.3968729,-123.2520372
Kelvin Grove,49.4500039,-123.240248
Porteau Cove Diving Area,49.5602726,-123.2351748
Borek,49.7927888,15.5777088
Pendennis Shore Dive,50.1467974,-5.0505964
D1,50.3327788,-3.4994712
Rumchalpa,50.4655055,15.4951945
Bank 2,50.6393522,6.4048379
Bank 1,50.6428309,6.4097148
Edenwood,50.6752777,-0.9025
Outer Mulberry,50.7451906,-0.7043666
"Echtzer See, Tauchereinstieg am DLRG-Haus",50.8182609,6.4214724
Basis am Blausteinsee,50.853654,6.2660855
Blausteinsee,50.8541836,6.267369
Plattform 2m,50.8542635,6.2675272
Plattform 9m,50.8544091,6.2681414
Plattform 6m,50.8545099,6.2680274
LKW-Kabine 16m,50.8547675,6.2688088
Plattform 21m,50.8547834,6.2691593
Tauchschule Eckartsberg,50.9268766,14.7992814
Club des Smogglers,51.0035918,2.1090224
De Nekker,51.0218325,4.5028339
Kelchterhoef,51.0337546,5.4171754
See Widdauen 2,51.0835344,6.9459334
Ponton,51.1671722,13.49585
instap 4,51.1789968,5.8732561
instap 3,51.1790732,5.8740311
instap 1,51.1790899,5.8755015
instap 2,51.179098,5.8748304
bootje,51.179216,5.8751267
vliegtuig,51.1792325,5.8748074
9m platform (klein),51.1794553,5.8747619
9m platform (groot),51.1795519,5.8753892
Steina,51.2049764,14.0601492
Ausbildungsplattform mit 1 Bojen,51.2301419,6.5719024
Tauch-Sport-Club Kaarst,51.2301448,6.574095
Tauch-Sport-Club Kaarst,51.2301666,6.5734479
Ausbildungsplattform mit 1 Bojen,51.2302102,6.5715608
Tauchsee Horka,51.2629692,14.2464164
Taucheinstieg,51.2646058,12.3439212
Put van Ekeren,51.2833277,4.3910162
Tauchbasis E2,51.3056326,12.2516193
Tauchbasis E3,51.3109691,12.251756
Kirchbruch,51.323203,12.5672263
Taucherbucht,51.3816375,6.6315975
TC Bleienten e.V. Duisburg,51.4082205,6.7934093
Taucheinstieg 4,51.4701689,10.8429898
Taucheinstieg 5,51.47628,10.8316037
Charlotte III,51.4785047,10.8132506
Taucheinstieg 3,51.4798212,10.8125688
Charlotte II,51.4801551,10.8104183
Charlotte IV,51.4802361,10.8082771
Sundi,51.4805059,10.80941
Taucheinstieg 1,51.480879,10.8103949
Charlotte I,51.4809297,10.8085128
Taucheinstieg 2a,51.4811736,10.8073234
Tauchereinstieg 2,51.4813328,10.8080882
Bergse Diepsluis,51.5166816,4.1726907
Goese Sas,51.5405,3.93062
Puttis Place,51.5446,3.92694
Duikplanken,51.5716639,4.5627465
Invalidenvissteiger,51.5958,4.0061
Zuidbout,51.6141,3.96074
Noordbout,51.621141,3.9461512
De Val,51.6279,3.92212
Kulkenol,51.6292,3.89749
Zonneschijn Zuiveringsinstallatie,51.6300364,4.0676044
Halverwege,51.6305252,3.9046955
Havenhoofd West,51.632,3.88907
Blinde Dam,51.6333948,4.0725706
Goudzwaardeg,51.6392486,4.0810776
Zuidweg,51.6416807,4.0849565
Levensstrijd,51.6419,3.89045
Anna Jacobapolder,51.6435,4.10079
Zoetersbout,51.6438926,4.0898423
Lokkersnol,51.6494269,3.8847653
Kisternol,51.6571151,3.8808593
Flauwers Heerenkeet,51.676606,3.8507301
Flauwers West,51.6767505,3.8471498
Plompe Toren,51.6816,3.77245
Ankerplaats - Dillingweg,51.6827929,4.0485471
Schelphoek,51.6842,3.8092
Dijkval,51.6867582,3.786276
GochNess,51.7078336,6.09351
Northeimer Seenplatte,51.7277563,9.9597814
Dolfintje,51.7401047,3.8263744
"Le Serpent, stern",51.7411585,3.8425152
"Le Serpent, bow",51.7413769,3.8431281
TSC Wassermann,52.0552075,11.8414525
Tauchstation,52.0567383,11.8236286
Little Boat Wreck,52.1565647,10.2990731
Training Platform,52.1567712,10.299168
Motzener See,52.2124,13.5742167
Jersleber See,52.2336333,11.5815667
Weesperstrandje,52.2743674,5.0720057
Torfmoorsee Ostufer,52.283662,7.5686542
Torfmoorsee Westufer,52.2847992,7.558876
Toolenburgerplas,52.299,4.64649
Gaasperplas,52.3077678,5.0024705
Onderwaterpark Twiske,52.4508559,4.885422
Rioleringsbuizen,52.4509114,4.885548
Bestelbus,52.4509311,4.8858323
Duikplatform,52.4509311,4.8856285
Zeecontainers,52.4509556,4.8862964
Kabelhaspels,52.4509572,4.8854407
Zeilboot,52.4509834,4.8853334
Bestelbus,52.4509866,4.8850357
IBC's,52.4510095,4.8851967
Arendsee,52.8906167,11.4783333
Tauchbasis EJB (Wasserrettungspunkt 1-16),52.9209959,13.7243596
SS Rosalie,52.9516964,1.1333145
Tauchspot Linowsee,53.2591946,13.2676734
Tauchspot Linowsee,53.2756847,13.2885917
Tauchspot Carwitzer See beim Fischer,53.3058918,13.4465975
Tauchspot Dolgener See Koldenhof,53.3253003,13.3457546
Tauchspot Luzinhalle Schmaler Luzin,53.3258655,13.4413147
Tauchspot Dolgener See Schweinemastanlage,53.3400721,13.3541198
"Tauchspot Alt Rhese, Altmeiershof",53.4951851,13.184185
Heike,53.5269604,6.6903802
Tauchspot Augustabad am FKK Strand,53.5321455,13.245246
Pharma Tauchklub Neubrandenburg e.V.,53.5380287,13.2560331
Tauchspot Flacher See,53.6278077,12.5375648
Alter Kahn,53.6623822,11.4157707
Kabelrolle,53.6946282,9.1392044
Stollen,53.6947826,9.1397754
Autowrack Ford Mondeo,53.6956331,9.1360404
Segelyacht Hemmoor,53.695658,9.1366633
Taucher E4B,53.6958621,9.13536
Leuchtturm,53.6962812,9.1363375
Wohnwagen,53.6965621,9.1364437
Taucher E4A,53.6970416,9.1346562
PKW Verkehrsunfall,53.6972202,9.1348337
Versorgungsleitungen,53.6977355,9.1350768
Taucher E3,53.6977975,9.1328744
Steinschlagmatten,53.6978571,9.1336489
Holztreppe,53.6978769,9.1377324
Holztreppe,53.6983811,9.133364
Gullyschacht,53.6983928,9.1383536
Taucher E2,53.6986285,9.1310297
Betonbombe II,53.698756,9.1317044
Segelboot,53.6988073,9.1311484
Mahusan,53.698927,9.1335131
Steilhang,53.6990316,9.1309419
Flugzeugwrack Piper,53.6990761,9.13143
Skywalk,53.6991143,9.1305843
Plattform 6m,53.6991826,9.1302208
Plattform 3m,53.6992072,9.1301511
Rohrleitung,53.6992701,9.1361394
Chinesisches Tor,53.6992739,9.1297839
Taucher E1,53.6994849,9.12922
Betonbombe I,53.6995485,9.1305922
LKW-Rampe,53.6998595,9.1296534
"Plattform 4,5m",53.7000373,9.1292627
Taucher E0,53.7000592,9.1290862
Wald,53.7002213,9.1349502
Steilhang II,53.7007993,9.1344406
Ultraleichtflieger,53.7011566,9.1317564
Boot,53.7011858,9.1323068
Kabelrolle II,53.7012212,9.132782
Taucher E5B,53.7020519,9.1329572
Taucher E5A,53.7025001,9.1309643
Tauchschule,54.0930613,10.8150692
Bohrhammer,54.1817325,11.9933492
Arabella,54.187952,21.655981
Skiffs,54.2581013,22.8132128
Buoy guideline to the bell,54.2588184,22.8057351
Bell,54.258885,22.8071278
Bomb,54.2616129,22.8151371
Boat,54.2626807,22.8165675
Platform,54.262982,22.817672
Platform with mirror,54.2629918,22.8167478
Boat,54.263041,22.814644
Platform,54.263077,22.8180657
Tree,54.2635611,22.8164801
Sign 60,54.263969,22.8154939
Mirror,54.26489,22.81671
Dock-Tor,54.433522,11.322611
Tauchbasis Katharinenhof,54.4434687,11.2785424
Betonschute,54.4889792,10.0979218
Sten Trans,54.5732536,10.3931112
Burg,54.5758302,11.2321717
Svendborgsund,54.6183,10.135
Dranske,54.6315676,13.2205865
Kuter rybacki 2 (wrak),54.6793272,18.6699913
Kuter rybacki 1 (wrak),54.6821618,18.6389026
Vaišvydavos karjeras,54.8380013,24.0254863
Christa (wrak),54.8469184,18.4818296
VIII Fortas,54.9198826,23.8858371
Lakajai 2,55.2136317,25.5323821
Tauragnas,55.4499318,25.8405679
Alaušas,55.5974941,25.7051057
Trubaduren fyr,57.5966667,11.6325
Nieman,57.6421537,11.6123262
Ytre Kalven,58.199953,6.6144267
Austgavlen,58.2008664,6.6535518
Katterauva,58.2026332,6.6501828
Indre Kalven,58.2044985,6.63041
Hunden,58.2148711,6.6811982
Gudrun,58.2365406,6.6540044
Katedrale,58.2460673,6.5622451
F2,58.8454911,-3.1945524
SMS Karlsruhe,58.8895237,-3.1870727
Gobernador,58.9232016,-3.3111347
Tabarka (block ship),58.9267702,-3.3131054
Stavanger Dykkersenter,58.9514795,5.743427
Kaivoslampi,60.2398143,24.0345291
Lektern,63.3261967,10.1136554
Nykorallene,63.3288541,10.0993828
Plaugen,63.4481704,10.3390249
Texacobryggen,63.4496785,10.3253097
Korsvika,63.4497344,10.4308475
ND31 (Oder),63.4497822,10.3272078
Trolla,63.4517677,10.3148526v
Nudi Falls,1.46102,125.22657
Police Pier,1.46622,125.23396
Serena Island (Sarena Kecil),1.45665,125.2255
Batu Angus,1.50572,125.24541
Batu Kapal,1.54912,125.29218
Batu Lubang Besar (Big),1.43039,125.19078
Batu Lubang Kecil (Small),1.43407,125.2027
Pulau Abadi,1.43358,125.20623
Pulau Dua,1.38967,125.21414
Pulau Putus,1.52243,125.27702
Air Prang (Aer Perang),1.47369,125.23404
Pantai Parigi,1.46945,125.24411
Tanjung Kubur,1.47908,125.24976
Tanjung Kuning,1.38633,125.17312
Tanjung Mawali,1.44345,125.22944
Tanjung Paudean,1.40199,125.16714
Tanjung Kusu-Kusu,1.45382,125.23693
Teluk Makawidey (Bay),1.48474,125.24059